name,address,lat,lng,Upso,SalesAmt,FlowPop,EmpEop,AbodePop,EmpAvgCo
종암SK DT,서울 성북구 종암동 10-15,37.59578,127.0360251,4개,"2,803만원","118,015명","13,402명","34,145명",327만원
서울번동DT점,서울 강북구 번동 106,37.621142,127.045245,3개,"3,026만원","73,710명","6,405명","30,260명",298만원
미아DT,서울 강북구 미아동 682-12,37.618093,127.021708,3개,"2,915만원","113,454명","17,220명","53,587명",302만원
방학역DT점,서울 도봉구 도봉동 620-25,37.670048,127.043274,6개,"2,221만원","85,720명","20,905명","39,538명",298만원
상계DT,서울 노원구 상계동 1022,37.672395,127.056223,2개,"9,797만원","60,915명","13,496명","40,301명",307만원
신월남부 DT점,서울 양천구 신월동 525-1,37.5197288,126.8387402,2개,"12,678만원","121,251명","18,357명","48,033명",301만원
파리공원점,서울 양천구 목동 908-25,37.537162,126.881005,4개,"3,331만원","80,037명","15,076명","33,727명",341만원
신월DT,서울 양천구 신월동 199-3,37.5314234,126.8308779,2개,"44,276만원","78,806명","15,296명","38,538명",298만원
등촌 DT,서울 강서구 등촌동 630,37.5582134,126.8597362,3개,"4,063만원","189,514명","42,127명","43,940명",337만원
염창 DT점,서울 강서구 염창동 280-11,37.547627,126.8715,9개,"3,434만원","169,861명","23,409명","57,527명",341만원
우장산DT,서울시 강서구 화곡동 1026,37.545063,126.837336,7개,"3,526만원","136,070명","23,043명","60,687명",326만원
부산명지DT점,부산 강서구 명지동 3420-7,35.0974674,128.9225055,5개,"2,347만원","104,430명","5,227명","20,602명",347만원
고척DT,서울 구로구 고척동 73-20,37.497228,126.863536,4개,"4,173만원","309,355명","17,134명","33,389명",333만원
서울시흥DT,서울 금천구 시흥동 903-4,37.45046,126.902621,6개,"3,221만원","152,424명","21,331명","35,095명",312만원
양평SK DT,서울 영등포구 양평동3가 80-2,37.5309805,126.893343,3개,"4,043만원","227,208명","58,665명","24,318명",344만원
양재 SK DT,서울 서초구 양재동 81,37.478071,127.03961,7개,"4,008만원","221,991명","64,993명","21,261명",408만원
서초GS점,서울 서초구 서초동 1536-1,37.486518,127.009527,5개,"4,131만원","308,158명","85,882명","30,915명",384만원
청담DT,서울 강남구 청담동 87-3,37.5237111,127.0403004,5개,"3,797만원","330,340명","92,036명","18,950명",382만원
강남삼성DT,서울 강남구 삼성동 113-7,37.5108629,127.0473756,4개,"5,811만원","192,859명","85,342명","37,240명",409만원
가락DT점,서울 송파구 가락동 193-7,37.494879,127.130762,1개,"13,093만원","108,135명","23,039명","45,411명",334만원
송파잠실DT,서울 송파구 잠실동 305-15,37.504361,127.077051,2개,"7,609만원","74,146명","13,722명","22,165명",358만원
굽은다리역DT,서울 강동구 천호동 31-10,37.547256,127.142984,4개,"3,381만원","114,160명","23,693명","60,232명",315만원
서울둔촌DT,서울 강동구 둔촌동 517-2,37.52928,127.137334,2개,"41,155만원","186,787명","28,858명","41,993명",352만원
범일 SK DT,부산 동구 범일동 828-8,35.1375351,129.0641472,8개,"1,437만원","245,607명","43,176명","24,165명",330만원
부산초량 DT,부산 동구 초량동 1198-7,35.1172315,129.0413088,7개,"2,014만원","232,585명","41,641명","18,428명",315만원
부산영도DT,부산 영도구 봉래동3가 82-2,35.092896,129.045401,4개,"1,676만원","110,493명","17,096명","21,778명",312만원
부산온천 SK DT,부산 동래구 온천동 1431-4,35.206364,129.073908,9개,"1,835만원","161,527명","24,558명","39,882명",315만원
원동점,부산 동래구 안락동 65-2,35.194386,129.110998,4개,"2,458만원","113,912명","12,712명","28,910명",314만원
부산사직DT점,부산 동래구 사직동 105-10,35.1943637,129.0669049,2개,0만원,"148,123명","17,388명","36,066명",316만원
부산황령DT점,부산 남구 대연동 201,35.1448686,129.0978176,0개,0만원,"30,149명","1,953명","8,006명",323만원
부산동명대DT점,부산 남구 용당동 524,35.1228007,129.0997316,1개,"2,113만원","41,638명","7,806명","7,553명",317만원
화명 DT,부산 북구 화명동 193-1,35.240479,129.014479,6개,"2,303만원","141,288명","11,937명","27,966명",293만원
부산 구남DT점,부산 북구 구포동 920-16,35.198924,128.995988,1개,"1,438만원","83,220명","10,191명","21,894명",311만원
부산덕천 DT,부산 북구 덕천동 554-1,35.2193532,129.0064388,3개,"2,097만원","79,527명","5,642명","19,810명",312만원
부산송정DT,부산 해운대구 송정동 135-2,35.18386,129.20147,1개,"16,758만원","61,524명","3,909명","6,828명",315만원
달맞이 DT,부산 해운대구 중동 1777-5,35.161841,129.170957,4개,"2,509만원","96,945명","17,204명","24,266명",313만원
해운대DT,부산 해운대구 우동 626-13,35.160151,129.159643,6개,"3,025만원","181,952명","21,527명","10,964명",332만원
부산다대DT점,부산 사하구 다대동 1160-12,35.0587439,128.9715034,1개,0만원,"49,330명","6,795명","17,033명",306만원
부산하단DT,부산 사하구 하단동 619-20,35.1040914,128.9711394,8개,"2,037만원","305,706명","19,176명","26,593명",305만원
부산구서DT,부산 금정구 구서동 163-2,35.2589962,129.0909939,1개,"26,144만원","39,699명","14,650명","30,188명",322만원
부산 교대 DT점,부산 연제구 거제동 1-1,35.1928227,129.079559,2개,"8,624만원","162,260명","38,592명","28,624명",321만원
시청 DT,부산 연제구 연산동 1364-2,35.180789,129.077025,6개,"2,561만원","180,263명","41,616명","43,049명",322만원
부산수영SK DT점,부산 수영구 수영동 450-9,35.1682444,129.1143187,6개,"2,212만원","134,985명","20,430명","36,316명",302만원
부산 남천DT점,부산 수영구 남천동 30-4,35.1478008,129.1107721,4개,"2,353만원","115,286명","19,513명","23,512명",318만원
부산엄궁 DT,부산 사상구 엄궁동 367-3,35.128014,128.969062,3개,"2,261만원","79,200명","10,002명","13,898명",323만원
부산기장 DT,부산 기장군 기장읍 청강리 112-1,35.2395851,129.2204796,3개,"2,686만원","58,162명","8,610명","10,994명",312만원
부산정관DT점,부산 기장군 정관읍 매학리 720-3,35.3205339,129.1773511,6개,"1,657만원","143,321명","8,862명","13,762명",331만원
방촌 DT,대구 동구 방촌동 883-9,35.8811089,128.6668421,2개,249만원,"82,929명","8,663명","24,715명",304만원
대구동호DT,대구 동구 신서동 718,35.8696417,128.7281069,3개,"1,683만원","130,696명","8,877명","27,321명",346만원
대구평리DT점,대구 서구 평리동 1407-1,35.8664105,128.5552987,3개,0만원,"81,506명","16,001명","33,070명",297만원
대구교대DT,대구 남구 대명동 1793-5,35.853471,128.590254,6개,"2,345만원","83,549명","14,506명","19,695명",308만원
대구태전 DT,대구 북구 태전동 409-12,35.9227656,128.5465096,2개,"11,829만원","80,697명","9,886명","24,212명",305만원
대구 침산DT,대구 북구 침산동 244-1,35.886979,128.591729,9개,"2,386만원","156,516명","13,936명","36,656명",327만원
칠곡 2 DT,대구 북구 읍내동 1385-2,35.932701,128.549584,3개,"2,162만원","74,232명","11,899명","29,906명",304만원
대구복현DT점,대구 북구 복현동 364-5,35.8923448,128.6230705,2개,"2,407만원","77,593명","8,318명","27,347명",309만원
대구 수성DT,대구 수성구 수성동4가 1020-2,35.860015,128.6191288,11개,"1,991만원","209,826명","23,728명","35,655명",348만원
대구만촌DT점,대구 수성구 만촌동 853-1,35.8564424,128.6500702,4개,"3,108만원","125,722명","7,074명","13,122명",328만원
대구황금DT점,대구 수성구 황금동 567-11,35.8398734,128.6253141,3개,"2,079만원","93,032명","12,028명","22,492명",309만원
대구희망DT점,대구 수성구 중동 70-10,35.8466919,128.6133472,2개,"1,369만원","67,571명","11,600명","22,489명",322만원
대구시지DT점,대구 수성구 매호동 1087-1,35.8409636,128.7070276,7개,"1,763만원","143,316명","12,389명","34,641명",319만원
대구 모다 DT점,대구 달서구 호산동 720-2,35.8399882,128.4912427,2개,0만원,"71,758명","12,688명",163명,332만원
대구진천DT점,대구 달서구 진천동 608-6,35.813863,128.521789,6개,"1,869만원","180,074명","14,274명","40,633명",321만원
용산 DT,대구 달서구 용산동 934,35.857381,128.530813,3개,"3,336만원","71,560명","12,473명","26,925명",311만원
대구본리DT점,대구 달서구 감삼동 346,35.844745,128.537513,6개,"3,255만원","158,979명","13,604명","40,815명",310만원
대구 이곡DT,대구 달서구 이곡동 1244-3,35.8551203,128.508293,3개,"1,904만원","179,069명","16,313명","31,025명",311만원
대구 다사DT,대구 달성군 다사읍 죽곡리 5-23,35.861736,128.461659,2개,"3,404만원","132,152명","8,390명","30,589명",336만원
신흥DT점,인천 중구 신흥동3가 7-227,37.456986,126.634617,1개,0만원,"144,582명","19,916명","28,127명",323만원
문학DT점,인천 미추홀구 문학동 381-5,37.4382026,126.6888976,3개,"3,287만원","52,159명","5,433명","11,791명",295만원
연수 GS DT점,인천 연수구 연수동 597,37.4148325,126.6770929,7개,"3,222만원","141,623명","19,448명","20,218명",301만원
송도GS DT점,인천 연수구 송도동 8-18,37.385219,126.6446957,2개,"2,414만원","253,012명","13,619명","8,571명",393만원
인천옥련 DT점,인천 연수구 옥련동 265-29,37.428082,126.654103,0개,0만원,"59,942명","6,743명","20,278명",307만원
인천구월DT점,인천 남동구 구월동 1120-16,37.4500387,126.6938266,1개,"3,208만원","128,462명","19,039명","33,108명",305만원
만수DT점,인천 남동구 만수동 904-4,37.459989,126.723486,2개,0만원,"86,667명","16,557명","48,582명",290만원
구월 아시아드 DT점,인천 남동구 구월동 1185,37.446767,126.707541,5개,"2,898만원","208,757명","46,316명","26,164명",317만원
부평SK DT,인천 부평구 부평동 440-2,37.5000338,126.7226495,6개,"2,674만원","137,658명","30,311명","54,661명",311만원
인천구산 DT,인천 부평구 구산동 1-4,37.4840793,126.7518742,5개,"3,920만원","169,211명","25,697명","19,464명",311만원
인천삼산DT점,인천 부평구 삼산동 226-7,37.519461,126.732804,3개,"2,934만원","58,417명","15,575명","32,740명",313만원
인천계산DT,인천 계양구 계산동 1083-3,37.5343565,126.7381358,6개,"2,414만원","208,259명","28,757명","43,205명",307만원
연희 DT,인천 서구 심곡동 255-2,37.541262,126.676282,2개,"23,917만원","89,223명","16,571명","17,365명",303만원
인천청라DT,인천 서구 청라동 208-3,37.517362,126.649716,0개,0만원,"9,505명","4,348명",147명,348만원
광주쌍촌 DT,광주 서구 쌍촌동 964-9,35.151535,126.86275,3개,"2,339만원","108,816명","12,410명","22,765명",358만원
상무,광주 서구 치평동 1182,35.153713,126.847691,5개,"2,419만원","241,822명","36,393명","21,889명",362만원
광주월산DT,광주 남구 월산동 951-3,35.145839,126.889637,1개,"32,903만원","144,028명","14,387명","24,161명",314만원
광주진월DT,광주 남구 진월동 291-7,35.1216173,126.8982296,3개,"2,093만원","109,938명","8,285명","20,841명",317만원
광주운암DT,광주 북구 운암동 1078-2,35.1849172,126.8701582,3개,"1,783만원","80,553명","6,812명","23,221명",316만원
광주첨단DT점,광주 북구 용두동 311-15,35.2115964,126.8717442,3개,"4,051만원","106,426명","8,911명","28,185명",337만원
광주동림DT,광주 북구 동림동 900-41,35.1723932,126.8622261,4개,"1,863만원","115,316명","9,852명","19,825명",360만원
용봉DT,광주 북구 용봉동 1130-8,35.185125,126.898181,4개,"2,287만원","114,798명","13,482명","26,127명",316만원
전남대 DT,광주 북구 용봉동 127-1,35.179382,126.912369,10개,"1,911만원","70,632명","15,612명","20,404명",304만원
광주산정DT점,광주 광산구 산정동 143-16,35.165782,126.801344,3개,"4,198만원","110,243명","7,804명","20,791명",325만원
대전 센트럴 DT점,대전 중구 대흥동 522-1,36.3241732,127.419176,5개,"1,996만원","95,014명","28,252명","17,477명",311만원
대전유천DT점,대전 중구 유천동 327-4,36.317445,127.3924202,4개,"2,252만원","59,462명","11,175명","29,230명",294만원
대전부사DT,대전 중구 부사동 87-14,36.319769,127.431771,1개,0만원,"60,828명","10,321명","16,282명",322만원
대전가장DT,대전 서구 가장동 54-1,36.3344569,127.3888453,4개,"4,172만원","103,578명","17,811명","29,192명",300만원
대전가수원DT,대전 서구 가수원동 655-4,36.303557,127.348389,5개,"2,586만원","62,544명","8,315명","16,445명",319만원
대전카이스트DT점,대전 유성구 가정동 2-23,36.3805308,127.3782696,0개,0만원,"46,590명","4,936명","4,664명",413만원
대전 유성 DT점,대전 유성구 봉명동 446-5,36.354346,127.340413,10개,"2,449만원","184,961명","22,484명","18,681명",343만원
대전한남대DT점,대전 대덕구 중리동 230-15,36.3584065,127.4212141,0개,0만원,"43,670명","10,330명","13,103명",318만원
대전신탄진DT점,대전 대덕구 상서동 834-4,36.432737,127.423142,0개,0만원,"57,392명","7,978명","6,061명",380만원
울산서동DT,울산 중구 서동 53-3,35.5809426,129.3475574,0개,0만원,"37,257명","3,753명","13,576명",335만원
울산옥동 DT,울산 남구 신정동 1639-36,35.5338665,129.2999606,2개,"11,093만원","87,892명","11,180명","30,881명",326만원
울산삼산DT,울산 남구 삼산동 1550-7,35.5426585,129.3391428,9개,"1,750만원","218,780명","29,635명","18,690명",325만원
울산SK DT,울산 남구 달동 819,35.5326525,129.3156324,4개,"1,829만원","157,139명","22,279명","28,035명",313만원
울산 삼산로 DT,울산 남구 달동 1253-1,35.5380226,129.3323694,6개,"1,750만원","231,215명","36,912명","25,521명",340만원
울산 일산 DT,울산 동구 일산동 951-5,35.498218,129.428313,3개,"1,979만원","135,431명","9,533명","13,077명",338만원
울산호계SK DT점,울산 북구 신천동 452-1,35.6354397,129.3452839,3개,"1,785만원","62,362명","4,140명","14,125명",321만원
울산 굴화DT점,울산 울주군 범서읍 굴화리 28-8,35.556479,129.262596,3개,"2,071만원","128,247명","6,859명","16,579명",321만원
북수원DT점,경기 수원시 장안구 송죽동 451-1,37.3051514,127.002735,5개,"2,326만원","85,718명","14,805명","37,000명",329만원
수원정자DT,경기 수원시 장안구 정자동 76-18,37.290278,127.001636,0개,0만원,"66,558명","13,098명","41,694명",315만원
수원GS DT,경기 수원시 권선구 권선동 1029,37.2590888,127.0260263,2개,"20,199만원","200,562명","35,359명","30,193명",320만원
수원세류DT,경기 수원시 권선구 세류동 1155-8,37.2446881,127.0171584,0개,0만원,"116,119명","3,900명","11,390명",318만원
수원화성DT점,경기 수원시 팔달구 우만동 490-4,37.285572,127.028107,2개,"18,227만원","62,806명","10,435명","23,957명",318만원
수원인계DT,경기 수원시 팔달구 인계동 363-3,37.270672,127.034944,4개,"3,407만원","164,719명","25,598명","25,279명",421만원
동수원GS DT,경기 수원시 영통구 창룡대로 370,37.294811,127.048409,11개,"2,593만원","125,002명","19,396명","10,530명",339만원
수원 망포DT,경기 수원시 영통구 망포동 21-1,37.246121,127.054623,5개,"3,280만원","195,129명","25,125명","28,567명",406만원
성남신흥DT점,경기 성남시 수정구 신흥동 181,37.451099,127.148536,1개,0만원,"43,030명","5,117명","32,705명",320만원
서판교 DT,경기 성남시 분당구 운중동 1017,37.3906413,127.0840039,3개,"3,700만원","110,211명","7,190명","11,374명",420만원
의정부만가대 DT점,경기 의정부시 용현동 60-1,37.7309716,127.0865032,2개,"9,079만원","75,961명","6,198명","19,638명",372만원
의정부금오DT점,경기 의정부시 금오동 99-6,37.7555791,127.0785317,1개,0만원,"26,514명","7,459명","12,574명",338만원
의정부녹양DT점,경기 의정부시 가능동 106-1,37.7567324,127.0385792,4개,"2,532만원","104,476명","11,386명","28,899명",307만원
의정부GS DT점,경기 의정부시 호원동 435,37.7201469,127.0471417,4개,"3,047만원","41,150명","8,638명","23,305명",300만원
안양비산DT,경기 안양시 동안구 비산동 576-13,37.3933777,126.9418787,3개,"4,021만원","124,589명","21,479명","42,076명",331만원
광명소하DT점,경기 광명시 소하동 1340,37.4477011,126.8817756,1개,"3,713만원","92,161명","6,449명","8,769명",331만원
광명DT,경기 광명시 광명동 754-4,37.4685501,126.8478428,1개,"13,680만원","44,270명","8,471명","23,091명",306만원
평택GS DT,경기 평택시 용이동 470-5,36.9960302,127.1424225,6개,"3,096만원","180,035명","5,825명","19,734명",321만원
평택서정 DT점,경기 평택시 서정동 779-5,37.0696681,127.0639889,3개,"2,579만원","110,520명","10,243명","14,364명",323만원
평택 세교DT점,경기 평택시 경기대로 570,37.005327,127.084502,2개,"15,528만원","64,615명","5,870명","13,725명",327만원
동두천지행DT,경기 동두천시 지행동 340-1,37.892105,127.057318,6개,"1,934만원","76,258명","8,895명","24,631명",295만원
안산고잔 DT,경기 안산시 단원구 고잔동 705-5,37.3128766,126.8285911,4개,"3,297만원","155,513명","31,849명","17,699명",341만원
중산DT점,경기 고양시 일산동구 중산동 1667-5,37.6828342,126.7788292,4개,"2,816만원","94,994명","11,878명","31,055명",311만원
고양DT,경기 고양시 덕양구 벽제동 262-1,37.702824,126.903952,4개,"1,911만원","46,234명","3,682명","8,840명",312만원
고양풍동DT,경기 고양시 일산동구 풍동 148-3,37.6628115,126.8027062,3개,"3,170만원","53,753명","6,649명","15,377명",335만원
고양원당DT점,경기 고양시 덕양구 주교동 610-4,37.6559796,126.8351623,2개,"26,390만원","117,298명","17,005명","28,540명",320만원
고양삼송DT,경기 고양시 덕양구 동산동 74-1,37.6445183,126.8960646,4개,"2,830만원","109,857명","9,043명","9,035명",332만원
고양덕이DT,경기 고양시 일산서구 덕이동 304-3,37.699185,126.759431,3개,"3,178만원","95,028명","9,284명","29,464명",326만원
구리인창 DT,경기 구리시 인창동 410-5,37.6102744,127.137706,4개,"3,738만원","171,590명","17,048명","38,600명",314만원
평내 DT,경기 남양주시 평내동 246-21,37.647998,127.23483,1개,"25,946만원","58,293명","9,366명","26,151명",316만원
진접DT,경기 남양주시 진접읍 장현리 218,37.7220147,127.1896496,2개,"4,857만원","106,689명","4,674명","10,506명",321만원
마석DT,경기 남양주시 화도읍 마석우리 481-2,37.6600182,127.3023431,4개,"2,677만원","57,830명","6,783명","20,068명",321만원
오산세교DT점,경기 오산시 내삼미동 466-1,37.1785643,127.0558738,2개,"7,097만원","55,530명","3,907명","10,961명",343만원
오산DT점,경기 오산시 원동 372-5,37.139911,127.073855,2개,"10,474만원","130,486명","13,927명","22,225명",329만원
군포산본DT점,경기 군포시 산본동 51-1,37.373413,126.936938,1개,"3,612만원","187,485명","14,904명","33,091명",322만원
군포당동SK DT,경기 군포시 당동 871-2,37.346099,126.943522,4개,"3,036만원","163,589명","11,119명","36,295명",354만원
의왕오전DT,경기 의왕시 오전동 207-1,37.356517,126.967186,2개,"12,459만원","76,672명","16,933명","21,138명",334만원
하남시청DT점,경기 하남시 신장동 522-5,37.540954,127.214961,3개,"3,033만원","86,379명","13,036명","39,190명",324만원
용인수지DT,경기 용인시 수지구 풍덕천동 43-5,37.3303186,127.1023476,2개,"28,227만원","150,551명","13,674명","24,100명",343만원
용인마북 DT,경기 용인시 기흥구 마북동 552-4,37.3024726357499,127.10628235193924,1개,0만원,"161,648명","6,327명","17,462명",407만원
용인신갈DT,경기 용인시 기흥구 영덕동 40-2,37.269515,127.0970449,0개,0만원,"114,749명","6,112명","20,333명",357만원
용인시청DT,경기 용인시 처인구 삼가동 250-34,37.2387541,127.1745618,1개,"23,783만원","78,899명","6,592명","8,376명",341만원
용인동백DT,경기 용인시 기흥구 상하동 455-2,37.274748,127.141523,0개,0만원,"40,912명","3,790명","13,396명",346만원
용인DT,경기 용인시 처인구 김량장동 177-9,37.239931446158,127.2106275428,3개,"3,193만원","125,638명","8,226명","13,637명",328만원
용인보라DT,경기 용인시 기흥구 하갈동 142-8,37.2544724,127.1046466,2개,"41,993만원","123,159명","7,860명","7,250명",351만원
이천 DT,경기 이천시 중리동 461-3,37.275135,127.446654,7개,"2,902만원","423,726명","12,001명","11,009명",337만원
안성공도DT,경기 안성시 공도읍 마정리 149-17,37.0031697,127.1806612,0개,0만원,"55,520명","1,811명","5,458명",323만원
김포고촌SK DT점,경기 김포시 고촌읍 신곡리 532-25,37.6011347,126.7710576,3개,"4,029만원","141,976명","6,528명","18,052명",341만원
김포장기 DT,경기 김포시 장기동 1911-2,37.6463204,126.6707396,7개,"3,126만원","122,175명","8,806명","32,450명",335만원
김포감정DT점,경기 김포시 감정동 504-6,37.624299,126.696611,2개,"11,087만원","78,978명","5,518명","18,325명",327만원
김포구래DT,경기 김포시 구래동 6871-25,37.645171,126.619049,4개,"3,418만원","142,163명","10,238명","12,159명",353만원
병점DT점,경기 화성시 병점동 372-1,37.205453,127.037108,2개,"3,489만원","161,715명","12,231명","31,237명",338만원
동탄SK점,경기 화성시 능동 1051-1,37.2211071,127.0602127,0개,0만원,"191,948명","40,785명","18,067명",412만원
화성봉담DT,경기 화성시 기안동 357-5,37.2238271,126.9731257,1개,"14,181만원","99,691명","5,469명","15,601명",336만원
화성향남DT,경기 화성시 향남읍 방축리 297-75,37.121811,126.9187348,2개,"6,469만원","27,227명","2,572명","15,995명",347만원
경기광주DT,경기 광주시 쌍령동 155-18,37.40132790837621,127.27116160471068,0개,0만원,"42,092명","2,370명","13,747명",319만원
양주덕계DT,경기 양주시 덕계동 495-8,37.8247972,127.0508141,2개,"5,648만원","37,635명","3,842명","13,204명",309만원
양주휴게소DT,경기 양주시 장흥면 삼하리 250-16,37.678968,126.91616,0개,0만원,"26,113명",537명,543명,310만원
포천DT,경기 포천시 설운동 13-7,37.845665,127.160166,2개,0만원,"38,910명","1,812명","1,723명",322만원
여주DT,경기 여주시 교동 101,37.280375,127.635963,2개,"17,153만원","41,369명","2,027명","11,729명",323만원
청주비하 DT,충북 청주시 흥덕구 비하동 671-12,36.6386995,127.4222387,2개,"16,894만원","118,323명","8,770명","22,917명",377만원
청주봉명 DT,충북 청주시 흥덕구 봉명동 1405,36.6462293,127.4642027,5개,"2,455만원","73,633명","10,097명","19,439명",323만원
청주분평DT,충북 청주시 서원구 분평동 241-4,36.610333,127.483852,5개,"2,393만원","108,388명","11,393명","21,845명",309만원
청주율량GS DT점,충북 청주시 청원구 율량동 769,36.67074,127.484197,4개,"2,300만원","89,549명","11,240명","24,056명",323만원
청주금천 DT,충북 청주시 상당구 금천동 44-1,36.627773,127.508134,3개,"2,331만원","107,156명","9,749명","33,090명",305만원
충주교현 DT,충북 충주시 교현동 624-1,36.9793601,127.9279571,1개,0만원,"51,304명","9,391명","11,308명",310만원
제천DT점,충북 제천시 청전동 165-5,37.145273,128.214212,1개,"2,537만원","78,529명","8,886명","12,762명",313만원
천안원성 DT,충남 천안시 동남구 원성동 442-1,36.8105986,127.164304,0개,0만원,"38,183명","4,790명","9,605명",321만원
천안 쌍용역 DT점,충남 천안시 서북구 쌍용동 394-10,36.7935958,127.1259295,3개,"3,104만원","170,135명","13,873명","35,450명",316만원
천안두정DT,충남 천안시 서북구 두정동 620,36.8256774,127.1286879,4개,"2,427만원","83,044명","10,861명","27,342명",336만원
천안두정역DT,충남 천안시 서북구 두정동 24-8,36.832998,127.152069,3개,"2,341만원","69,502명","6,609명","24,087명",310만원
충남보령DT,충남 보령시 궁촌동 345-4,36.341671,126.589098,1개,0만원,"16,107명","1,827명","2,150명",313만원
충남아산DT,충남 아산시 온천동 36-28,36.784632,127.0050001,6개,"3,603만원","158,918명","16,248명","11,961명",318만원
서산DT,충남 서산시 예천동 524-26,36.772804,126.441134,3개,"3,222만원","56,694명","4,152명","17,523명",325만원
충남논산DT,충남 논산시 내동 343-1,36.18859,127.0954323,4개,"1,918만원","49,796명","7,999명","13,955명",275만원
충남당진DT,충남 당진시 읍내동 423-39,36.8971623,126.6269708,3개,"1,728만원","95,743명","7,458명","15,509명",326만원
충남홍성DT,충남 홍성군 홍성읍 소향리 72-4,36.6046922,126.6613855,3개,"2,292만원","97,984명","5,848명","5,561명",329만원
목포석현DT,전남 목포시 석현동 816-85,34.8172292,126.4203474,3개,"2,048만원","88,071명","8,856명","20,529명",317만원
목포하당DT점,전남 목포시 통일대로 88,34.800431,126.433771,2개,"1,860만원","129,825명","11,056명","10,768명",318만원
여수 학동 DT점,전남 여수시 학동 82-3,34.760998,127.664462,5개,"2,095만원","186,343명","17,709명","10,713명",324만원
순천덕암DT점,전남 순천시 덕암동 146-32,34.9417246,127.5089934,2개,"4,355만원","109,796명","5,858명","8,822명",305만원
순천조례DT,전남 순천시 조례동 382-1,34.957298,127.528712,5개,"2,256만원","80,594명","9,338명","22,158명",333만원
광양DT,전남 광양시 중동 1309-3,34.9393534,127.6997305,7개,"3,008만원","160,310명","11,760명","12,715명",331만원
목포남악DT점,전남 무안군 삼향읍 남악리 2148,34.8107491,126.4606712,6개,"2,420만원","143,134명","8,163명","15,540명",344만원
포항북부 DT,경북 포항시 북구 두호동 724,36.0563529,129.3775382,4개,"2,117만원","53,552명","6,012명","13,666명",298만원
포항남부DT점,경북 포항시 남구 대잠동 915,36.0172853,129.3472423,2개,"6,300만원","129,029명","17,874명","12,884명",323만원
포항장성DT점,경북 포항시 북구 장성동 1576-5,36.0747692,129.3848809,1개,0만원,"37,467명","4,621명","13,493명",306만원
경주황남 DT,경북 경주시 노서동 169-4,35.8388905,129.2049056,2개,"9,174만원","70,126명","6,575명","5,490명",304만원
경주보문DT,경북 경주시 신평동 436,35.8437132,129.2882117,1개,"11,090만원","34,025명","1,920명",147명,304만원
경주용강 DT,경북 경주시 용강동 875,35.8690051,129.2250611,0개,0만원,"46,619명","4,213명","10,052명",315만원
김천평화DT점,경북 김천시 평화동 2-2,36.127952,128.117844,2개,"20,560만원","81,729명","6,205명","9,321명",326만원
안동DT,경북 안동시 옥동 985-10,36.560062,128.703393,4개,"2,308만원","64,119명","6,565명","12,400명",303만원
구미도량 DT,경북 구미시 도량동 524-3,36.1362527,128.3320295,0개,0만원,"38,114명","5,171명","7,273명",301만원
구미형곡점,경북 구미시 형곡동 146-9,36.111127,128.335711,2개,"2,065만원","53,194명","12,195명","22,045명",312만원
구미인동DT,경북 구미시 인의동 1004-1,36.0953595,128.4315431,5개,"2,201만원","37,899명","9,885명","21,725명",352만원
구미옥계DT점,경북 구미시 옥계동 362-1,36.1403367,128.4182258,3개,"2,379만원","68,269명","5,648명","17,522명",340만원
영천DT,경북 영천시 망정동 206-9,35.9762739,128.952638,3개,"1,764만원","38,676명","3,068명","9,925명",309만원
경산정평DT,경북 경산시 정평동 147-6,35.8347,128.727062,3개,"1,100만원","123,820명","8,814명","34,467명",313만원
창원역DT점,경남 창원시 의창구 팔용동 149-4,35.2559358,128.6067754,2개,"1,666만원","114,188명","12,645명","10,338명",314만원
마산신포DT,경남 창원시 마산합포구 신포동1가 25-1,35.197997,128.57071,4개,"1,058만원","126,724명","15,530명","15,586명",302만원
진해자은 DT,경남 창원시 진해구 자은동 808-2,35.1447205,128.7068096,2개,"26,799만원","65,456명","5,765명","20,907명",302만원
창원사파DT,경남 창원시 성산구 사파동 97-4,35.221964,128.700305,0개,0만원,"61,277명","7,519명","18,833명",369만원
창원내서DT,경남 창원시 마산회원구 내서읍 중리 1043-8,35.2485149,128.5103547,1개,0만원,"35,301명","6,112명","4,359명",306만원
마산석전DT,경남 창원시 마산회원구 석전동 261-14,35.228,128.574,2개,"1,861만원","104,861명","9,699명","24,979명",303만원
진해용원DT,경남 창원시 진해구 용원동 1213-19,35.1011458,128.8106492,3개,"1,963만원","66,162명","6,892명","20,195명",312만원
진주칠암 DT,경남 진주시 주약동 94-1,35.1755202,128.0930724,3개,"1,303만원","84,485명","12,142명","11,179명",324만원
진주가좌DT,경남 진주시 가좌동 644-3,35.1615021,128.1071192,0개,0만원,"166,893명","3,727명","14,180명",319만원
진주혁신GSDT,경남 진주시 충무공동 222-1,35.1792099,128.1547736,2개,"3,120만원","51,994명","2,594명","11,640명",345만원
통영죽림DT,경남 통영시 광도면 죽림리 1569-1,34.8842312,128.4176021,5개,"2,058만원","87,311명","6,708명","13,766명",322만원
사천DT,경남 사천시 사천읍 수석리 320-11,35.080744,128.083462,3개,"1,235만원","211,985명","6,280명","5,692명",312만원
김해삼계 DT,경남 김해시 삼계동 1460-5,35.2627423,128.8720488,5개,"1,316만원","96,667명","9,204명","17,535명",309만원
김해삼정 DT,경남 김해시 삼정동 616-3,35.2281242,128.8968947,2개,"1,635만원","89,485명","11,083명","14,668명",307만원
김해외동DT점,경남 김해시 외동 238-3,35.229524,128.862475,2개,"7,225만원","69,061명","9,868명","25,076명",316만원
김해장유 DT,경남 김해시 대청동 316-1,35.1926792,128.8044838,3개,"1,603만원","225,321명","11,953명","16,920명",316만원
밀양 DT,경남 밀양시 삼문동 397,35.491029,128.746135,3개,"1,515만원","62,934명","4,580명","8,059명",318만원
옥포 SK DT,경남 거제시 옥포동 551-1,34.8886974,128.6917714,4개,"2,049만원","37,582명","8,446명","8,445명",320만원
웅상DT,경남 양산시 삼호동 1016-9,35.410612,129.164741,3개,"1,727만원","66,870명","6,291명","12,330명",321만원
양산DT점,경남 양산시 동면 석산리 1421-9,35.328068,129.033486,0개,0만원,"45,121명","4,790명","13,323명",322만원
양산북정 DT점,경남 양산시 신기동 545-7,35.3529749,129.0375763,0개,0만원,"93,087명","8,696명","9,806명",336만원
양산덕계DT점,경남 양산시 평산동 16-6,35.380737,129.155334,2개,"6,941만원","74,694명","5,466명","13,934명",314만원
제주시청DT,제주특별자치도 제주시 이도이동 1057-2,33.4956779,126.5331559,4개,"1,221만원","81,335명","17,797명","24,425명",313만원
제주노형 DT,제주특별자치도 제주시 노형동 903-5,33.4863584,126.4808204,7개,"1,656만원","157,207명","22,992명","22,799명",379만원
제주일도 DT,제주특별자치도 제주시 일도이동 369-11,33.507559,126.541128,1개,"14,158만원","50,268명","9,215명","20,669명",311만원
제주공항DT점,제주특별자치도 제주시 용담이동 1787,33.4950661,126.4925675,2개,"13,566만원","81,914명","9,936명","10,823명",345만원
제주외도DT,제주특별자치도 제주시 외도이동 345-1,33.493466,126.431264,3개,"1,838만원","42,949명","3,379명","8,917명",312만원
제주서귀포DT,제주특별자치도 서귀포시 서귀동 284-29,33.2532031,126.5626474,5개,"2,234만원","125,799명","13,413명","10,749명",313만원
제주월드컵스타디움DT,제주특별자치도 서귀포시 강정동 231-1,33.2494014,126.5073152,2개,"1,100만원","111,960명","4,130명","7,600명",351만원
제주중문DT,제주특별자치도 서귀포시 색달동 2558-1,33.254867,126.413763,1개,0만원,"40,737명","1,276명",393명,315만원
춘천퇴계DT,강원 춘천시 퇴계동 418-20,37.859061,127.73104,4개,"3,104만원","114,980명","8,998명","30,290명",324만원
춘천후평DT,강원 춘천시 후평동 702-5,37.8808807,127.7494853,3개,"2,842만원","79,511명","11,012명","26,182명",319만원
원주단계DT,강원 원주시 단계동 879-1,37.344154,127.928521,3개,"4,038만원","173,073명","12,186명","6,136명",334만원
원주단구DT,강원 원주시 단구동 1026-16,37.3291139,127.9513641,5개,"2,748만원","114,523명","10,800명","20,005명",302만원
강릉송정DT,강원특별자치도 강릉시 송정동 546-4,37.7722802,128.9239953,0개,0만원,"25,585명","3,298명","2,828명",319만원
동해DT,강원 동해시 천곡동 1066,37.5208536,129.1140294,5개,"2,214만원","43,944명","11,816명","9,292명",322만원
속초DT,강원 속초시 조양동 636-53,38.1898673,128.583929,2개,0만원,"133,506명","4,759명","12,626명",323만원
전주중화산점,전북 전주시 완산구 중화산동2가 648-11,35.8142624,127.1235637,0개,0만원,"71,300명","13,623명","20,047명",311만원
전주효자 DT,전북 전주시 완산구 효자동1가 411-24,35.805783,127.1117512,5개,"1,680만원","57,300명","9,668명","22,657명",302만원
전주평화 DT,전북 전주시 완산구 평화동1가 732-1,35.793859,127.132678,0개,0만원,"84,939명","9,524명","23,230명",292만원
전주인후DT점,전북 전주시 덕진구 백제대로 692,35.8440085,127.145058,1개,0만원,"48,551명","12,494명","9,246명",327만원
전주송천 DT,전북 전주시 덕진구 송천동2가 527,35.864989,127.121885,3개,"1,751만원","216,367명","11,384명","29,501명",314만원
전주덕진 DT,전북 전주시 덕진구 덕진동1가 1401-18,35.843834,127.123055,8개,"1,767만원","102,360명","8,015명","6,034명",327만원
군산나운DT,전북 군산시 나운동 844-6,35.962196,126.696174,4개,"3,467만원","48,454명","9,651명","25,156명",318만원
군산조촌DT,전북특별자치도 군산시 조촌동 471-1,35.9768446,126.737038,3개,"3,300만원","147,549명","7,623명","14,554명",315만원
익산영등DT점,전북 익산시 영등동 747-8,35.958123,126.972979,5개,"2,255만원","61,706명","13,297명","25,081명",316만원
전북정읍DT,전북 정읍시 수성동 524-17,35.5696764,126.8516727,3개,"3,383만원","72,113명","9,951명","7,710명",320만원
